[{"hasPerk":false,"referralId":"v-1544653776","name":"Raw South Juice Co","location":{"cc":"US","country":"United States","address":"9804 SW 77th Ave","labeledLatLngs":[{"lng":-80.31856755178859,"label":"display","lat":25.679286461869527}],"lng":-80.31856755178859,"formattedAddress":["9804 SW 77th Ave","Miami, FL 33156","United States"],"city":"Miami","postalCode":"33156","state":"FL","lat":25.679286461869527},"id":"551567f8498ece57a4ab1857","categories":[{"pluralName":"Juice Bars","name":"Juice Bar","icon":{"prefix":"https:\/\/ss3.4sqi.net\/img\/categories_v2\/food\/juicebar_","suffix":".png"},"id":"4bf58dd8d48988d112941735","shortName":"Juice Bar","primary":true}]},{"hasPerk":false,"referralId":"v-1544653776","name":"South West Movers","location":{"cc":"US","country":"United States","address":"\"South West Movers 1310 Sabal Lakes Rd Delray, FL 33445\"","labeledLatLngs":[{"lng":-80.1934790611267,"label":"display","lat":25.774349026766703}],"lng":-80.1934790611267,"formattedAddress":["\"South West Movers 1310 Sabal Lakes Rd Delray, FL 33445\"","Miami, FL 33445","United States"],"city":"Miami","postalCode":"33445","state":"FL","lat":25.774349026766703},"id":"58ee07094ca49b5b21dabcfb","categories":[{"pluralName":"Residential Buildings (Apartments \/ Condos)","name":"Residential Building (Apartment \/ Condo)","icon":{"prefix":"https:\/\/ss3.4sqi.net\/img\/categories_v2\/building\/apartment_","suffix":".png"},"id":"4d954b06a243a5684965b473","shortName":"Residential","primary":true}]},{"hasPerk":false,"referralId":"v-1544653776","name":"Riande Continental South Beach","location":{"cc":"US","country":"United States","labeledLatLngs":[{"lng":-80.193275,"label":"display","lat":25.774292}],"lng":-80.193275,"formattedAddress":["Miami, FL 33132","United States"],"city":"Miami","postalCode":"33132","state":"FL","lat":25.774292},"id":"4bd7a2ac304fce7294ca33ab","categories":[{"pluralName":"Hotels","name":"Hotel","icon":{"prefix":"https:\/\/ss3.4sqi.net\/img\/categories_v2\/travel\/hotel_","suffix":".png"},"id":"4bf58dd8d48988d1fa931735","shortName":"Hotel","primary":true}]},{"hasPerk":false,"referralId":"v-1544653776","name":"Raw Popup","location":{"cc":"US","country":"United States","labeledLatLngs":[{"lng":-80.193886,"label":"display","lat":25.773388}],"lng":-80.193886,"formattedAddress":["Miami, FL 33130","United States"],"city":"Miami","postalCode":"33130","state":"FL","lat":25.773388},"id":"5c0d828da5a315002cbf76e6","categories":[{"pluralName":"Art Galleries","name":"Art Gallery","icon":{"prefix":"https:\/\/ss3.4sqi.net\/img\/categories_v2\/arts_entertainment\/artgallery_","suffix":".png"},"id":"4bf58dd8d48988d1e2931735","shortName":"Art Gallery","primary":true}]},{"hasPerk":false,"referralId":"v-1544653776","name":"Raw JÃ¼ce","location":{"cc":"US","country":"United States","address":"901 S Miami Ave","labeledLatLngs":[{"lng":-80.19307136535645,"label":"display","lat":25.765102647383173}],"lng":-80.19307136535645,"formattedAddress":["901 S Miami Ave","Miami, FL 33130","United States"],"city":"Miami","postalCode":"33130","state":"FL","lat":25.765102647383173},"id":"5a31c273610f042b0012ef9d","categories":[{"pluralName":"Juice Bars","name":"Juice Bar","icon":{"prefix":"https:\/\/ss3.4sqi.net\/img\/categories_v2\/food\/juicebar_","suffix":".png"},"id":"4bf58dd8d48988d112941735","shortName":"Juice Bar","primary":true}]},{"hasPerk":false,"referralId":"v-1544653776","name":"SUGARCANE raw bar grill","location":{"cc":"US","country":"United States","address":"3252 NE 1st Ave","labeledLatLngs":[{"lng":-80.19310891628265,"label":"display","lat":25.807082373331536}],"lng":-80.19310891628265,"formattedAddress":["3252 NE 1st Ave","Miami, FL 33137","United States"],"city":"Miami","postalCode":"33137","state":"FL","lat":25.807082373331536},"id":"4bfea19aca1920a14c90eb81","categories":[{"pluralName":"South American Restaurants","name":"South American Restaurant","icon":{"prefix":"https:\/\/ss3.4sqi.net\/img\/categories_v2\/food\/argentinian_","suffix":".png"},"id":"4bf58dd8d48988d1cd941735","shortName":"South American","primary":true}]},{"hasPerk":false,"venuePage":{"id":"67839677"},"referralId":"v-1544653776","name":"American Airlines Arena","location":{"cc":"US","country":"United States","address":"601 Biscayne Blvd","labeledLatLngs":[{"lng":-80.18788933753967,"label":"display","lat":25.78130749074885}],"lng":-80.18788933753967,"formattedAddress":["601 Biscayne Blvd","Miami, FL 33132","United States"],"city":"Miami","postalCode":"33132","state":"FL","lat":25.78130749074885},"id":"4b155029f964a52006b023e3","categories":[{"pluralName":"Basketball Stadiums","name":"Basketball Stadium","icon":{"prefix":"https:\/\/ss3.4sqi.net\/img\/categories_v2\/arts_entertainment\/stadium_basketball_","suffix":".png"},"id":"4bf58dd8d48988d18b941735","shortName":"Basketball","primary":true}]},{"hasPerk":false,"referralId":"v-1544653776","name":"155 South Miami Ave","location":{"cc":"US","country":"United States","address":"155 S Miami Ave","labeledLatLngs":[{"lng":-80.19332835467222,"label":"display","lat":25.77293411978962}],"lng":-80.19332835467222,"formattedAddress":["155 S Miami Ave","Miami, FL 33130","United States"],"city":"Miami","postalCode":"33130","state":"FL","lat":25.77293411978962},"id":"4ddd4bda52b177ff2e808961","categories":[{"pluralName":"Buildings","name":"Building","icon":{"prefix":"https:\/\/ss3.4sqi.net\/img\/categories_v2\/building\/default_","suffix":".png"},"id":"4bf58dd8d48988d130941735","shortName":"Building","primary":true}]},{"hasPerk":false,"referralId":"v-1544653776","name":"South Florida Elevator Inspections","location":{"cc":"US","country":"United States","address":"10101 SW 85th Ter","labeledLatLngs":[{"lng":-80.19354343414307,"label":"display","lat":25.775006004367256}],"lng":-80.19354343414307,"formattedAddress":["10101 SW 85th Ter (at biscayne blvd)","Miami, FL 33173","United States"],"city":"Miami","postalCode":"33173","state":"FL","crossStreet":"at biscayne blvd","lat":25.775006004367256},"id":"51d33def8bbd77549de373bf","categories":[{"pluralName":"Offices","name":"Office","icon":{"prefix":"https:\/\/ss3.4sqi.net\/img\/categories_v2\/building\/default_","suffix":".png"},"id":"4bf58dd8d48988d124941735","shortName":"Office","primary":true}]},{"hasPerk":false,"referralId":"v-1544653776","name":"Brickell On The River South","location":{"cc":"US","country":"United States","address":"41 SE 5th St","labeledLatLngs":[{"lng":-80.19171015856135,"label":"display","lat":25.76917690190424}],"lng":-80.19171015856135,"formattedAddress":["41 SE 5th St","Miami, FL 33131","United States"],"city":"Miami","postalCode":"33131","state":"FL","lat":25.76917690190424},"id":"4bd0ed7b77b29c7407d98b82","categories":[{"pluralName":"Residential Buildings (Apartments \/ Condos)","name":"Residential Building (Apartment \/ Condo)","icon":{"prefix":"https:\/\/ss3.4sqi.net\/img\/categories_v2\/building\/apartment_","suffix":".png"},"id":"4d954b06a243a5684965b473","shortName":"Residential","primary":true}]},{"hasPerk":false,"referralId":"v-1544653776","name":"South Florida Gold","location":{"cc":"US","country":"United States","address":"22 NE 1st St Ste 123","labeledLatLngs":[{"lng":-80.19321029999999,"label":"display","lat":25.7750207}],"lng":-80.19321029999999,"formattedAddress":["22 NE 1st St Ste 123","Miami, FL 33132","United States"],"city":"Miami","postalCode":"33132","state":"FL","lat":25.7750207},"id":"55c5057b498eae5fea91733a","categories":[{"pluralName":"Jewelry Stores","name":"Jewelry Store","icon":{"prefix":"https:\/\/ss3.4sqi.net\/img\/categories_v2\/shops\/jewelry_","suffix":".png"},"id":"4bf58dd8d48988d111951735","shortName":"Jewelry","primary":true}]},{"hasPerk":false,"referralId":"v-1544653776","name":"Regal Cinemas South Beach 18 & IMAX","location":{"cc":"US","country":"United States","address":"1100 Lincoln Rd","labeledLatLngs":[{"lng":-80.140931,"label":"display","lat":25.790229}],"lng":-80.140931,"formattedAddress":["1100 Lincoln Rd","Miami Beach, FL 33139","United States"],"city":"Miami Beach","postalCode":"33139","state":"FL","lat":25.790229},"id":"4adbc923f964a520a32a21e3","categories":[{"pluralName":"Movie Theaters","name":"Movie Theater","icon":{"prefix":"https:\/\/ss3.4sqi.net\/img\/categories_v2\/arts_entertainment\/movietheater_","suffix":".png"},"id":"4bf58dd8d48988d17f941735","shortName":"Movie Theater","primary":true}],"events":{"summary":"29 movies","count":29}},{"hasPerk":false,"delivery":{"provider":{"name":"grubhub","icon":{"sizes":[40,50],"prefix":"https:\/\/fastly.4sqi.net\/img\/general\/cap\/","name":"\/delivery_provider_grubhub_20180129.png"}},"id":"928917","url":"https:\/\/www.grubhub.com\/restaurant\/raw-republic-185-se-13th-st-miami\/928917?affiliate=1131&utm_source=foursquare-affiliate-network&utm_medium=affiliate&utm_campaign=1131&utm_content=928917"},"referralId":"v-1544653776","name":"Raw Republic","location":{"cc":"US","country":"United States","address":"185 SE 13th St","labeledLatLngs":[{"lng":-80.190385,"label":"display","lat":25.760793}],"lng":-80.190385,"formattedAddress":["185 SE 13th St","Miami, FL 33131","United States"],"city":"Miami","postalCode":"33131","state":"FL","lat":25.760793},"id":"59cce6efa6fe4d1d3f34d90f","categories":[{"pluralName":"Juice Bars","name":"Juice Bar","icon":{"prefix":"https:\/\/ss3.4sqi.net\/img\/categories_v2\/food\/juicebar_","suffix":".png"},"id":"4bf58dd8d48988d112941735","shortName":"Juice Bar","primary":true}]},{"hasPerk":false,"venuePage":{"id":"81170907"},"referralId":"v-1544653776","name":"South Florida Jewelry Buyers","location":{"cc":"US","country":"United States","address":"36 NE 1st St Ste 546","labeledLatLngs":[{"lng":-80.19292116165161,"label":"display","lat":25.77508329561052}],"lng":-80.19292116165161,"formattedAddress":["36 NE 1st St Ste 546","Miami, FL 33132","United States"],"city":"Miami","postalCode":"33132","state":"FL","lat":25.77508329561052},"id":"50d13e5c3950f3c34d5d63ab","categories":[{"pluralName":"Jewelry Stores","name":"Jewelry Store","icon":{"prefix":"https:\/\/ss3.4sqi.net\/img\/categories_v2\/shops\/jewelry_","suffix":".png"},"id":"4bf58dd8d48988d111951735","shortName":"Jewelry","primary":true}]},{"hasPerk":false,"venuePage":{"id":"470641660"},"referralId":"v-1544653777","name":"South Florida Critical Power","location":{"cc":"US","country":"United States","address":"66 W Flagler Street #1214","labeledLatLngs":[{"lng":-80.1949168,"label":"display","lat":25.7738923}],"lng":-80.1949168,"formattedAddress":["66 W Flagler Street #1214","Miami, FL 33130","United States"],"city":"Miami","postalCode":"33130","state":"FL","lat":25.7738923},"id":"5812ed0738fa093d1233af90","categories":[{"pluralName":"Construction & Landscaping","name":"Construction & Landscaping","icon":{"prefix":"https:\/\/ss3.4sqi.net\/img\/categories_v2\/shops\/realestate_","suffix":".png"},"id":"5454144b498ec1f095bff2f2","shortName":"Construction","primary":true}]},{"hasPerk":false,"referralId":"v-1544653777","name":"South Pointe Park","location":{"cc":"US","country":"United States","address":"1 Ocean Dr","labeledLatLngs":[{"lng":-80.13352192405227,"label":"display","lat":25.766467774232407}],"lng":-80.13352192405227,"formattedAddress":["1 Ocean Dr (South Pointe Dr)","Miami Beach, FL 33139","United States"],"city":"Miami Beach","postalCode":"33139","state":"FL","crossStreet":"South Pointe Dr","lat":25.766467774232407},"id":"4a8def14f964a520751120e3","categories":[{"pluralName":"Parks","name":"Park","icon":{"prefix":"https:\/\/ss3.4sqi.net\/img\/categories_v2\/parks_outdoors\/park_","suffix":".png"},"id":"4bf58dd8d48988d163941735","shortName":"Park","primary":true}]},{"hasPerk":false,"referralId":"v-1544653777","name":"Raw Popup: Lab","location":{"cc":"US","country":"United States","labeledLatLngs":[{"lng":-80.19316,"label":"display","lat":25.76709}],"lng":-80.19316,"formattedAddress":["Miami, FL","United States"],"city":"Miami","state":"FL","lat":25.76709},"id":"5bb003fa31ac6c002c399459","categories":[{"pluralName":"Art Galleries","name":"Art Gallery","icon":{"prefix":"https:\/\/ss3.4sqi.net\/img\/categories_v2\/arts_entertainment\/artgallery_","suffix":".png"},"id":"4bf58dd8d48988d1e2931735","shortName":"Art Gallery","primary":true}]},{"hasPerk":false,"referralId":"v-1544653777","name":"Flamingo South Beach Center Tower","location":{"cc":"US","country":"United States","address":"1504 Bay Rd,","labeledLatLngs":[{"lng":-80.144292,"label":"display","lat":25.786317}],"lng":-80.144292,"formattedAddress":["1504 Bay Rd, (15th St & 16th St)","Miami Beach, FL 33139","United States"],"city":"Miami Beach","postalCode":"33139","state":"FL","crossStreet":"15th St & 16th St","lat":25.786317},"id":"4bbea33a006dc9b61891fb3f","categories":[{"pluralName":"Residential Buildings (Apartments \/ Condos)","name":"Residential Building (Apartment \/ Condo)","icon":{"prefix":"https:\/\/ss3.4sqi.net\/img\/categories_v2\/building\/apartment_","suffix":".png"},"id":"4d954b06a243a5684965b473","shortName":"Residential","primary":true}]},{"hasPerk":false,"venuePage":{"id":"121857273"},"referralId":"v-1544653777","name":"1 Hotel South Beach","location":{"cc":"US","country":"United States","address":"2341 Collins Ave","labeledLatLngs":[{"lng":-80.12704610824584,"label":"display","lat":25.79916461326906}],"lng":-80.12704610824584,"formattedAddress":["2341 Collins Ave","Miami Beach, FL 33139","United States"],"city":"Miami Beach","postalCode":"33139","state":"FL","lat":25.79916461326906},"id":"529f5c7f11d25082caffbb26","categories":[{"pluralName":"Resorts","name":"Resort","icon":{"prefix":"https:\/\/ss3.4sqi.net\/img\/categories_v2\/travel\/resort_","suffix":".png"},"id":"4bf58dd8d48988d12f951735","shortName":"Resort","primary":true}]},{"hasPerk":false,"referralId":"v-1544653777","name":"Equinox South Beach","location":{"cc":"US","country":"United States","address":"520 Collins Avenue","labeledLatLngs":[{"lng":-80.13296,"label":"display","lat":25.775437}],"lng":-80.13296,"formattedAddress":["520 Collins Avenue (at 5th St)","Miami Beach, FL 33139","United States"],"city":"Miami Beach","postalCode":"33139","state":"FL","crossStreet":"at 5th St","lat":25.775437},"id":"4b6a36d4f964a5207ecd2be3","categories":[{"pluralName":"Gyms","name":"Gym","icon":{"prefix":"https:\/\/ss3.4sqi.net\/img\/categories_v2\/building\/gym_","suffix":".png"},"id":"4bf58dd8d48988d176941735","shortName":"Gym","primary":true}]},{"hasPerk":false,"referralId":"v-1544653777","name":"One Raw Music, LLC","location":{"cc":"US","country":"United States","address":"141 NE 3rd Ave","labeledLatLngs":[{"lng":-80.188528,"label":"display","lat":25.775153}],"lng":-80.188528,"formattedAddress":["141 NE 3rd Ave","Miami, FL 33132","United States"],"city":"Miami","postalCode":"33132","state":"FL","lat":25.775153},"id":"4d8909a63acc6dcb3000151c","categories":[{"pluralName":"Concert Halls","name":"Concert Hall","icon":{"prefix":"https:\/\/ss3.4sqi.net\/img\/categories_v2\/arts_entertainment\/musicvenue_","suffix":".png"},"id":"5032792091d4c4b30a586d5c","shortName":"Concert Hall","primary":true}]},{"hasPerk":false,"referralId":"v-1544653777","name":"South River Drive Historic District","location":{"cc":"US","country":"United States","labeledLatLngs":[{"lng":-80.20043279857245,"label":"display","lat":25.769939665711863}],"lng":-80.20043279857245,"formattedAddress":["Miami, FL","United States"],"city":"Miami","state":"FL","lat":25.769939665711863},"id":"53152896e4b0e72a36f95246","categories":[{"pluralName":"Neighborhoods","name":"Neighborhood","icon":{"prefix":"https:\/\/ss3.4sqi.net\/img\/categories_v2\/parks_outdoors\/neighborhood_","suffix":".png"},"id":"4f2a25ac4b909258e854f55f","shortName":"Neighborhood","primary":true}]},{"hasPerk":false,"venuePage":{"id":"38113565"},"referralId":"v-1544653777","name":"Clevelander South Beach Hotel and Bar","location":{"cc":"US","country":"United States","address":"1020 Ocean Dr","labeledLatLngs":[{"lng":-80.130869,"label":"display","lat":25.780728}],"lng":-80.130869,"formattedAddress":["1020 Ocean Dr (btwn 10th & 11th St)","Miami Beach, FL 33139","United States"],"city":"Miami Beach","postalCode":"33139","neighborhood":"Flamingo-Lummus","state":"FL","crossStreet":"btwn 10th & 11th St","lat":25.780728},"id":"4043ce80f964a520fef11ee3","categories":[{"pluralName":"Hotels","name":"Hotel","icon":{"prefix":"https:\/\/ss3.4sqi.net\/img\/categories_v2\/travel\/hotel_","suffix":".png"},"id":"4bf58dd8d48988d1fa931735","shortName":"Hotel","primary":true}]},{"hasPerk":false,"referralId":"v-1544653777","name":"South Pointe Pier","location":{"cc":"US","country":"United States","labeledLatLngs":[{"lng":-80.1296781208283,"label":"display","lat":25.76358236691918}],"lng":-80.1296781208283,"formattedAddress":["Miami Beach, FL 33139","United States"],"city":"Miami Beach","postalCode":"33139","state":"FL","lat":25.76358236691918},"id":"4c9806cc2778224b4e09a168","categories":[{"pluralName":"Piers","name":"Pier","icon":{"prefix":"https:\/\/ss3.4sqi.net\/img\/categories_v2\/travel\/ferry_pier_","suffix":".png"},"id":"4e74f6cabd41c4836eac4c31","shortName":"Piers","primary":true}]},{"hasPerk":false,"referralId":"v-1544653777","name":"South Pointe Beach","location":{"cc":"US","country":"United States","labeledLatLngs":[{"lng":-80.13059402676552,"label":"display","lat":25.76549550081996}],"lng":-80.13059402676552,"formattedAddress":["Miami Beach, FL 33139","United States"],"city":"Miami Beach","postalCode":"33139","state":"FL","lat":25.76549550081996},"id":"54baa09c498ea3c0de48b10e","categories":[{"pluralName":"Beaches","name":"Beach","icon":{"prefix":"https:\/\/ss3.4sqi.net\/img\/categories_v2\/parks_outdoors\/beach_","suffix":".png"},"id":"4bf58dd8d48988d1e2941735","shortName":"Beach","primary":true}]},{"hasPerk":false,"referralId":"v-1544653777","name":"W South Beach","location":{"cc":"US","country":"United States","address":"2201 Collins Ave","labeledLatLngs":[{"lng":-80.12719028710251,"label":"display","lat":25.797381250980674}],"lng":-80.12719028710251,"formattedAddress":["2201 Collins Ave (at 22nd St.)","Miami Beach, FL 33139","United States"],"city":"Miami Beach","postalCode":"33139","state":"FL","crossStreet":"at 22nd St.","lat":25.797381250980674},"id":"4abedc44f964a5204f9020e3","categories":[{"pluralName":"Hotels","name":"Hotel","icon":{"prefix":"https:\/\/ss3.4sqi.net\/img\/categories_v2\/travel\/hotel_","suffix":".png"},"id":"4bf58dd8d48988d1fa931735","shortName":"Hotel","primary":true}]},{"hasPerk":false,"delivery":{"provider":{"name":"grubhub","icon":{"sizes":[40,50],"prefix":"https:\/\/fastly.4sqi.net\/img\/general\/cap\/","name":"\/delivery_provider_grubhub_20180129.png"}},"id":"933489","url":"https:\/\/www.grubhub.com\/restaurant\/raw-juce-959-w-ave-ste-13-miami-beach\/933489?affiliate=1131&utm_source=foursquare-affiliate-network&utm_medium=affiliate&utm_campaign=1131&utm_content=933489"},"referralId":"v-1544653777","name":"raw juce","location":{"cc":"US","country":"United States","address":"959 West Ave","labeledLatLngs":[{"lng":-80.14221,"label":"display","lat":25.779586}],"lng":-80.14221,"formattedAddress":["959 West Ave","Miami Beach, FL 33139","United States"],"city":"Miami Beach","postalCode":"33139","neighborhood":"West Avenue","state":"FL","lat":25.779586},"id":"5877d262db6cd6126cbfa363","categories":[{"pluralName":"Smoothie Shops","name":"Smoothie Shop","icon":{"prefix":"https:\/\/ss3.4sqi.net\/img\/categories_v2\/food\/juicebar_","suffix":".png"},"id":"52f2ab2ebcbc57f1066b8b41","shortName":"Smoothie Shop","primary":true}]},{"hasPerk":false,"venuePage":{"id":"40417263"},"referralId":"v-1544653777","name":"CTi South Florida","location":{"cc":"US","country":"United States","address":"1200 Brickell Ave","labeledLatLngs":[{"lng":-80.19188448786736,"label":"display","lat":25.76216697692871}],"lng":-80.19188448786736,"formattedAddress":["1200 Brickell Ave (SE 10th St.)","Miami, FL 33131","United States"],"city":"Miami","postalCode":"33131","state":"FL","crossStreet":"SE 10th St.","lat":25.76216697692871},"id":"4cadf2bd489476b04e1e74cc","categories":[{"pluralName":"Moving Targets","name":"Moving Target","icon":{"prefix":"https:\/\/ss3.4sqi.net\/img\/categories_v2\/travel\/movingtarget_","suffix":".png"},"id":"4f2a23984b9023bd5841ed2c","shortName":"Moving Target","primary":true}]},{"hasPerk":false,"referralId":"v-1544653777","name":"FitySweety Raw Cakes","location":{"cc":"US","country":"United States","address":"888 Biscayne Blvd","labeledLatLngs":[{"lng":-80.19012093544006,"label":"display","lat":25.78239192130027}],"lng":-80.19012093544006,"formattedAddress":["888 Biscayne Blvd","Miami, FL 33132","United States"],"city":"Miami","postalCode":"33132","state":"FL","lat":25.78239192130027},"id":"57f7d43c498eedc692658d3c","categories":[{"pluralName":"Dessert Shops","name":"Dessert Shop","icon":{"prefix":"https:\/\/ss3.4sqi.net\/img\/categories_v2\/food\/dessert_","suffix":".png"},"id":"4bf58dd8d48988d1d0941735","shortName":"Desserts","primary":true}]},{"hasPerk":false,"referralId":"v-1544653777","name":"South Beach Lady Yacht - Hyatt Dock","location":{"cc":"US","country":"United States","labeledLatLngs":[{"lng":-80.1909108,"label":"display","lat":25.7709338}],"lng":-80.1909108,"formattedAddress":["Miami Beach, FL","United States"],"city":"Miami Beach","state":"FL","lat":25.7709338},"id":"5511148f498e15ceb4ee6e9d","categories":[]}]