{"meta":{"code":200,"requestId":"5bfe1241f594df3224d9b3e7"},"response":{"venues":[{"id":"4aee268ff964a52086d221e3","name":"Boston Kitchen Pizza","location":{"address":"1 Stuart St","crossStreet":"Washington St","lat":42.35090194801581,"lng":-71.0630241266923,"labeledLatLngs":[{"label":"display","lat":42.35090194801581,"lng":-71.0630241266923}],"postalCode":"02116","cc":"US","city":"Boston","state":"MA","country":"United States","formattedAddress":["1 Stuart St (Washington St)","Boston, MA 02116","United States"]},"categories":[{"id":"4bf58dd8d48988d1ca941735","name":"Pizza Place","pluralName":"Pizza Places","shortName":"Pizza","icon":{"prefix":"https:\/\/ss3.4sqi.net\/img\/categories_v2\/food\/pizza_","suffix":".png"},"primary":true}],"referralId":"v-1543377473","hasPerk":false},{"id":"4c2a2790ce3fc928e9da6f88","name":"Sal's Pizza","location":{"address":"150 Tremont St","crossStreet":"at West St","lat":42.35489042678564,"lng":-71.06351671773069,"labeledLatLngs":[{"label":"display","lat":42.35489042678564,"lng":-71.06351671773069}],"postalCode":"02111","cc":"US","city":"Boston","state":"MA","country":"United States","formattedAddress":["150 Tremont St (at West St)","Boston, MA 02111","United States"]},"categories":[{"id":"4bf58dd8d48988d1ca941735","name":"Pizza Place","pluralName":"Pizza Places","shortName":"Pizza","icon":{"prefix":"https:\/\/ss3.4sqi.net\/img\/categories_v2\/food\/pizza_","suffix":".png"},"primary":true}],"referralId":"v-1543377473","hasPerk":false},{"id":"585ab814e309e16a0cdaab14","name":"Blaze Pizza","location":{"address":"123 Stuart St,","lat":42.35104126714644,"lng":-71.06561514885372,"labeledLatLngs":[{"label":"display","lat":42.35104126714644,"lng":-71.06561514885372}],"postalCode":"02116","cc":"US","city":"Boston","state":"MA","country":"United States","formattedAddress":["123 Stuart St,","Boston, MA 02116","United States"]},"categories":[{"id":"4bf58dd8d48988d1ca941735","name":"Pizza Place","pluralName":"Pizza Places","shortName":"Pizza","icon":{"prefix":"https:\/\/ss3.4sqi.net\/img\/categories_v2\/food\/pizza_","suffix":".png"},"primary":true}],"referralId":"v-1543377473","hasPerk":false},{"id":"4a45bd0af964a52079a81fe3","name":"New York Pizza - Theater District","location":{"address":"224 Tremont St","crossStreet":"btwn Boylston & Stuart","lat":42.351332035941105,"lng":-71.0647529961542,"labeledLatLngs":[{"label":"display","lat":42.351332035941105,"lng":-71.0647529961542}],"postalCode":"02116","cc":"US","city":"Boston","state":"MA","country":"United States","formattedAddress":["224 Tremont St (btwn Boylston & Stuart)","Boston, MA 02116","United States"]},"categories":[{"id":"4bf58dd8d48988d1ca941735","name":"Pizza Place","pluralName":"Pizza Places","shortName":"Pizza","icon":{"prefix":"https:\/\/ss3.4sqi.net\/img\/categories_v2\/food\/pizza_","suffix":".png"},"primary":true}],"delivery":{"id":"302541","url":"https:\/\/www.grubhub.com\/restaurant\/new-york-pizza-224-tremont-st-boston\/302541?affiliate=1131&utm_source=foursquare-affiliate-network&utm_medium=affiliate&utm_campaign=1131&utm_content=302541","provider":{"name":"grubhub","icon":{"prefix":"https:\/\/fastly.4sqi.net\/img\/general\/cap\/","sizes":[40,50],"name":"\/delivery_provider_grubhub_20180129.png"}}},"venuePage":{"id":"476606438"},"referralId":"v-1543377473","hasPerk":false},{"id":"56290ddd498e3a8dc65d6a55","name":"Oath Pizza - South Station","location":{"address":"700 Atlantic Ave","crossStreet":"at Summer St","lat":42.351511792478014,"lng":-71.05504137298902,"labeledLatLngs":[{"label":"display","lat":42.351511792478014,"lng":-71.05504137298902}],"postalCode":"02111","cc":"US","city":"Boston","state":"MA","country":"United States","formattedAddress":["700 Atlantic Ave (at Summer St)","Boston, MA 02111","United States"]},"categories":[{"id":"4bf58dd8d48988d1ca941735","name":"Pizza Place","pluralName":"Pizza Places","shortName":"Pizza","icon":{"prefix":"https:\/\/ss3.4sqi.net\/img\/categories_v2\/food\/pizza_","suffix":".png"},"primary":true}],"delivery":{"id":"897457","url":"https:\/\/www.grubhub.com\/restaurant\/oath-pizza-700-atlantic-ave-boston\/897457?affiliate=1131&utm_source=foursquare-affiliate-network&utm_medium=affiliate&utm_campaign=1131&utm_content=897457","provider":{"name":"grubhub","icon":{"prefix":"https:\/\/fastly.4sqi.net\/img\/general\/cap\/","sizes":[40,50],"name":"\/delivery_provider_grubhub_20180129.png"}}},"referralId":"v-1543377473","hasPerk":false},{"id":"3fd66200f964a5200dec1ee3","name":"California Pizza Kitchen","location":{"address":"800 Boylston St., #155, Prudential","crossStreet":"at Huntington Ave","lat":42.34731,"lng":-71.080086,"labeledLatLngs":[{"label":"display","lat":42.34731,"lng":-71.080086}],"postalCode":"02199","cc":"US","city":"Boston","state":"MA","country":"United States","formattedAddress":["800 Boylston St., #155, Prudential (at Huntington Ave)","Boston, MA 02199","United States"]},"categories":[{"id":"4bf58dd8d48988d1ca941735","name":"Pizza Place","pluralName":"Pizza Places","shortName":"Pizza","icon":{"prefix":"https:\/\/ss3.4sqi.net\/img\/categories_v2\/food\/pizza_","suffix":".png"},"primary":true}],"delivery":{"id":"328409","url":"https:\/\/www.grubhub.com\/restaurant\/california-pizza-kitchen-800-boylston-st-boston\/328409?affiliate=1131&utm_source=foursquare-affiliate-network&utm_medium=affiliate&utm_campaign=1131&utm_content=328409","provider":{"name":"grubhub","icon":{"prefix":"https:\/\/fastly.4sqi.net\/img\/general\/cap\/","sizes":[40,50],"name":"\/delivery_provider_grubhub_20180129.png"}}},"referralId":"v-1543377473","hasPerk":false},{"id":"5275890611d240e4eb092bc5","name":"Crazy Dough's Pizza-Artisan Slice Bar","location":{"address":"800 Boylston St","lat":42.346362645672606,"lng":-71.08240484846377,"labeledLatLngs":[{"label":"display","lat":42.346362645672606,"lng":-71.08240484846377}],"postalCode":"02199","cc":"US","city":"Boston","state":"MA","country":"United States","formattedAddress":["800 Boylston St","Boston, MA 02199","United States"]},"categories":[{"id":"4bf58dd8d48988d1ca941735","name":"Pizza Place","pluralName":"Pizza Places","shortName":"Pizza","icon":{"prefix":"https:\/\/ss3.4sqi.net\/img\/categories_v2\/food\/pizza_","suffix":".png"},"primary":true}],"referralId":"v-1543377473","hasPerk":false},{"id":"4afb41b5f964a5206d1c22e3","name":"Arams #2 House of Pizza","location":{"address":"345 Cambridge St","crossStreet":"at Sciarappa St","lat":42.37132529035593,"lng":-71.08174970236715,"labeledLatLngs":[{"label":"display","lat":42.37132529035593,"lng":-71.08174970236715}],"postalCode":"02141","cc":"US","city":"Cambridge","state":"MA","country":"United States","formattedAddress":["345 Cambridge St (at Sciarappa St)","Cambridge, MA 02141","United States"]},"categories":[{"id":"4bf58dd8d48988d1ca941735","name":"Pizza Place","pluralName":"Pizza Places","shortName":"Pizza","icon":{"prefix":"https:\/\/ss3.4sqi.net\/img\/categories_v2\/food\/pizza_","suffix":".png"},"primary":true}],"referralId":"v-1543377473","hasPerk":false},{"id":"4bcf44d5462cb713715fd607","name":"Caesar's Pizza & Subs","location":{"address":"34 Essex St","lat":42.35234101491408,"lng":-71.06166709574566,"labeledLatLngs":[{"label":"display","lat":42.35234101491408,"lng":-71.06166709574566}],"postalCode":"02111","cc":"US","city":"Boston","state":"MA","country":"United States","formattedAddress":["34 Essex St","Boston, MA 02111","United States"]},"categories":[{"id":"4bf58dd8d48988d1ca941735","name":"Pizza Place","pluralName":"Pizza Places","shortName":"Pizza","icon":{"prefix":"https:\/\/ss3.4sqi.net\/img\/categories_v2\/food\/pizza_","suffix":".png"},"primary":true}],"referralId":"v-1543377473","hasPerk":false},{"id":"4aaee746f964a520b46320e3","name":"South End Pizza & Grill","location":{"address":"772 Tremont St","crossStreet":"W Springfield St","lat":42.33946779131135,"lng":-71.07991981386895,"labeledLatLngs":[{"label":"display","lat":42.33946779131135,"lng":-71.07991981386895}],"postalCode":"02118","cc":"US","neighborhood":"South End","city":"Boston","state":"MA","country":"United States","formattedAddress":["772 Tremont St (W Springfield St)","Boston, MA 02118","United States"]},"categories":[{"id":"4bf58dd8d48988d1ca941735","name":"Pizza Place","pluralName":"Pizza Places","shortName":"Pizza","icon":{"prefix":"https:\/\/ss3.4sqi.net\/img\/categories_v2\/food\/pizza_","suffix":".png"},"primary":true}],"delivery":{"id":"528968","url":"https:\/\/www.grubhub.com\/restaurant\/south-end-pizza--grill-772-tremont-st-boston\/528968?affiliate=1131&utm_source=foursquare-affiliate-network&utm_medium=affiliate&utm_campaign=1131&utm_content=528968","provider":{"name":"grubhub","icon":{"prefix":"https:\/\/fastly.4sqi.net\/img\/general\/cap\/","sizes":[40,50],"name":"\/delivery_provider_grubhub_20180129.png"}}},"referralId":"v-1543377473","hasPerk":false},{"id":"4aaf11c4f964a5200a6420e3","name":"New York Pizza - South End","location":{"address":"435 Massachusetts Ave","crossStreet":"at Columbus Ave.","lat":42.34058826221684,"lng":-71.08191620552833,"labeledLatLngs":[{"label":"display","lat":42.34058826221684,"lng":-71.08191620552833}],"postalCode":"02118","cc":"US","city":"Boston","state":"MA","country":"United States","formattedAddress":["435 Massachusetts Ave (at Columbus Ave.)","Boston, MA 02118","United States"]},"categories":[{"id":"4bf58dd8d48988d1ca941735","name":"Pizza Place","pluralName":"Pizza Places","shortName":"Pizza","icon":{"prefix":"https:\/\/ss3.4sqi.net\/img\/categories_v2\/food\/pizza_","suffix":".png"},"primary":true}],"delivery":{"id":"131570","url":"https:\/\/www.grubhub.com\/restaurant\/new-york-pizza-435-massachusetts-ave-boston\/131570?affiliate=1131&utm_source=foursquare-affiliate-network&utm_medium=affiliate&utm_campaign=1131&utm_content=131570","provider":{"name":"grubhub","icon":{"prefix":"https:\/\/fastly.4sqi.net\/img\/general\/cap\/","sizes":[40,50],"name":"\/delivery_provider_grubhub_20180129.png"}}},"venuePage":{"id":"480107229"},"referralId":"v-1543377473","hasPerk":false},{"id":"4b5f20ebf964a520bba729e3","name":"Rome Pizza","location":{"address":"416 Tremont St","lat":42.3468325766716,"lng":-71.06894307740059,"labeledLatLngs":[{"label":"display","lat":42.3468325766716,"lng":-71.06894307740059}],"postalCode":"02116","cc":"US","city":"Boston","state":"MA","country":"United States","formattedAddress":["416 Tremont St","Boston, MA 02116","United States"]},"categories":[{"id":"4bf58dd8d48988d1ca941735","name":"Pizza Place","pluralName":"Pizza Places","shortName":"Pizza","icon":{"prefix":"https:\/\/ss3.4sqi.net\/img\/categories_v2\/food\/pizza_","suffix":".png"},"primary":true}],"delivery":{"id":"55406","url":"https:\/\/www.grubhub.com\/restaurant\/rome-pizza-416-tremont-st-boston\/55406?affiliate=1131&utm_source=foursquare-affiliate-network&utm_medium=affiliate&utm_campaign=1131&utm_content=55406","provider":{"name":"grubhub","icon":{"prefix":"https:\/\/fastly.4sqi.net\/img\/general\/cap\/","sizes":[40,50],"name":"\/delivery_provider_grubhub_20180129.png"}}},"venuePage":{"id":"90049969"},"referralId":"v-1543377473","hasPerk":false},{"id":"533c44b7498e6945dbc7808f","name":"Stoked Wood Fired Pizza Co.","location":{"crossStreet":"Dalton Street","lat":42.35041018176183,"lng":-71.07507092407866,"labeledLatLngs":[{"label":"display","lat":42.35041018176183,"lng":-71.07507092407866}],"postalCode":"02210","cc":"US","city":"Boston","state":"MA","country":"United States","formattedAddress":["Dalton Street","Boston, MA 02210","United States"]},"categories":[{"id":"4bf58dd8d48988d1cb941735","name":"Food Truck","pluralName":"Food Trucks","shortName":"Food Truck","icon":{"prefix":"https:\/\/ss3.4sqi.net\/img\/categories_v2\/food\/streetfood_","suffix":".png"},"primary":true}],"venuePage":{"id":"84844117"},"referralId":"v-1543377473","hasPerk":false},{"id":"4a787b9bf964a520bde51fe3","name":"Kendall House of Pizza","location":{"address":"201 3rd St","crossStreet":"Charles St","lat":42.36769666273656,"lng":-71.08129121878831,"labeledLatLngs":[{"label":"display","lat":42.36769666273656,"lng":-71.08129121878831}],"postalCode":"02141","cc":"US","city":"Cambridge","state":"MA","country":"United States","formattedAddress":["201 3rd St (Charles St)","Cambridge, MA 02141","United States"]},"categories":[{"id":"4bf58dd8d48988d1ca941735","name":"Pizza Place","pluralName":"Pizza Places","shortName":"Pizza","icon":{"prefix":"https:\/\/ss3.4sqi.net\/img\/categories_v2\/food\/pizza_","suffix":".png"},"primary":true}],"referralId":"v-1543377473","hasPerk":false},{"id":"49d78b93f964a520315d1fe3","name":"Pinocchio's Pizza & Subs","location":{"address":"74 Winthrop St","crossStreet":"btwn Dunster & JFK","lat":42.371946,"lng":-71.120237,"labeledLatLngs":[{"label":"display","lat":42.371946,"lng":-71.120237}],"postalCode":"02138","cc":"US","city":"Cambridge","state":"MA","country":"United States","formattedAddress":["74 Winthrop St (btwn Dunster & JFK)","Cambridge, MA 02138","United States"]},"categories":[{"id":"4bf58dd8d48988d1ca941735","name":"Pizza Place","pluralName":"Pizza Places","shortName":"Pizza","icon":{"prefix":"https:\/\/ss3.4sqi.net\/img\/categories_v2\/food\/pizza_","suffix":".png"},"primary":true}],"delivery":{"id":"503957","url":"https:\/\/www.grubhub.com\/restaurant\/pinocchios-pizza--subs-74-winthrop-st-cambridge\/503957?affiliate=1131&utm_source=foursquare-affiliate-network&utm_medium=affiliate&utm_campaign=1131&utm_content=503957","provider":{"name":"grubhub","icon":{"prefix":"https:\/\/fastly.4sqi.net\/img\/general\/cap\/","sizes":[40,50],"name":"\/delivery_provider_grubhub_20180129.png"}}},"venuePage":{"id":"62425722"},"referralId":"v-1543377473","hasPerk":false},{"id":"5287a20411d2a7ff9cc0351d","name":"Crush Pizza","location":{"address":"107 State St","lat":42.359068082160164,"lng":-71.05492253113808,"labeledLatLngs":[{"label":"display","lat":42.359068082160164,"lng":-71.05492253113808}],"postalCode":"02109","cc":"US","city":"Boston","state":"MA","country":"United States","formattedAddress":["107 State St","Boston, MA 02109","United States"]},"categories":[{"id":"4bf58dd8d48988d1ca941735","name":"Pizza Place","pluralName":"Pizza Places","shortName":"Pizza","icon":{"prefix":"https:\/\/ss3.4sqi.net\/img\/categories_v2\/food\/pizza_","suffix":".png"},"primary":true}],"delivery":{"id":"295803","url":"https:\/\/www.grubhub.com\/restaurant\/crush-pizza-107-state-st-boston\/295803?affiliate=1131&utm_source=foursquare-affiliate-network&utm_medium=affiliate&utm_campaign=1131&utm_content=295803","provider":{"name":"grubhub","icon":{"prefix":"https:\/\/fastly.4sqi.net\/img\/general\/cap\/","sizes":[40,50],"name":"\/delivery_provider_grubhub_20180129.png"}}},"referralId":"v-1543377473","hasPerk":false},{"id":"4b0c28e4f964a520133823e3","name":"Alexandria Pizza & Grill","location":{"address":"1252 Washington St","lat":42.34241678370298,"lng":-71.06755318853116,"labeledLatLngs":[{"label":"display","lat":42.34241678370298,"lng":-71.06755318853116}],"postalCode":"02118","cc":"US","city":"Boston","state":"MA","country":"United States","formattedAddress":["1252 Washington St","Boston, MA 02118","United States"]},"categories":[{"id":"4bf58dd8d48988d1ca941735","name":"Pizza Place","pluralName":"Pizza Places","shortName":"Pizza","icon":{"prefix":"https:\/\/ss3.4sqi.net\/img\/categories_v2\/food\/pizza_","suffix":".png"},"primary":true}],"delivery":{"id":"55262","url":"https:\/\/www.grubhub.com\/restaurant\/alexandria-pizza-1252-washington-st-boston\/55262?affiliate=1131&utm_source=foursquare-affiliate-network&utm_medium=affiliate&utm_campaign=1131&utm_content=55262","provider":{"name":"grubhub","icon":{"prefix":"https:\/\/fastly.4sqi.net\/img\/general\/cap\/","sizes":[40,50],"name":"\/delivery_provider_grubhub_20180129.png"}}},"referralId":"v-1543377473","hasPerk":false},{"id":"592b76f6d0a1495f69d7b1da","name":"La Pizza & La Pasta","location":{"address":"800 Boylston St","lat":42.347787132155936,"lng":-71.08244398841694,"labeledLatLngs":[{"label":"display","lat":42.347787132155936,"lng":-71.08244398841694}],"postalCode":"02199","cc":"US","city":"Boston","state":"MA","country":"United States","formattedAddress":["800 Boylston St","Boston, MA 02199","United States"]},"categories":[{"id":"4bf58dd8d48988d110941735","name":"Italian Restaurant","pluralName":"Italian Restaurants","shortName":"Italian","icon":{"prefix":"https:\/\/ss3.4sqi.net\/img\/categories_v2\/food\/italian_","suffix":".png"},"primary":true}],"referralId":"v-1543377473","hasPerk":false},{"id":"59a1a723002f4c019aea7bc2","name":"Oath Pizza - Central Square","location":{"address":"181 Massachusetts Ave","lat":42.361244696780716,"lng":-71.09610896726754,"labeledLatLngs":[{"label":"display","lat":42.361244696780716,"lng":-71.09610896726754}],"postalCode":"02139","cc":"US","city":"Cambridge","state":"MA","country":"United States","formattedAddress":["181 Massachusetts Ave","Cambridge, MA 02139","United States"]},"categories":[{"id":"4bf58dd8d48988d1ca941735","name":"Pizza Place","pluralName":"Pizza Places","shortName":"Pizza","icon":{"prefix":"https:\/\/ss3.4sqi.net\/img\/categories_v2\/food\/pizza_","suffix":".png"},"primary":true}],"delivery":{"id":"897488","url":"https:\/\/www.grubhub.com\/restaurant\/oath-pizza-181-massachusetts-ave-ste-1-cambridge\/897488?affiliate=1131&utm_source=foursquare-affiliate-network&utm_medium=affiliate&utm_campaign=1131&utm_content=897488","provider":{"name":"grubhub","icon":{"prefix":"https:\/\/fastly.4sqi.net\/img\/general\/cap\/","sizes":[40,50],"name":"\/delivery_provider_grubhub_20180129.png"}}},"referralId":"v-1543377473","hasPerk":false},{"id":"4cdf45cc41ed224b5d85de3c","name":"Pizza Shuttle","location":{"address":"239 Meridian St","lat":42.3758192,"lng":-71.0389935,"labeledLatLngs":[{"label":"display","lat":42.3758192,"lng":-71.0389935}],"postalCode":"02128","cc":"US","city":"Boston","state":"MA","country":"United States","formattedAddress":["239 Meridian St","Boston, MA 02128","United States"]},"categories":[{"id":"4bf58dd8d48988d1ca941735","name":"Pizza Place","pluralName":"Pizza Places","shortName":"Pizza","icon":{"prefix":"https:\/\/ss3.4sqi.net\/img\/categories_v2\/food\/pizza_","suffix":".png"},"primary":true}],"referralId":"v-1543377473","hasPerk":false},{"id":"584b4f009343e03b166250d0","name":"All Star Pizza Bar","location":{"address":"204 Cambridge St","lat":42.36117553076586,"lng":-71.06591493617547,"labeledLatLngs":[{"label":"display","lat":42.36117553076586,"lng":-71.06591493617547}],"postalCode":"02114","cc":"US","city":"Boston","state":"MA","country":"United States","formattedAddress":["204 Cambridge St","Boston, MA 02114","United States"]},"categories":[{"id":"4bf58dd8d48988d1ca941735","name":"Pizza Place","pluralName":"Pizza Places","shortName":"Pizza","icon":{"prefix":"https:\/\/ss3.4sqi.net\/img\/categories_v2\/food\/pizza_","suffix":".png"},"primary":true}],"delivery":{"id":"450407","url":"https:\/\/www.grubhub.com\/restaurant\/all-star-pizza-bar-204-cambridge-st-boston\/450407?affiliate=1131&utm_source=foursquare-affiliate-network&utm_medium=affiliate&utm_campaign=1131&utm_content=450407","provider":{"name":"grubhub","icon":{"prefix":"https:\/\/fastly.4sqi.net\/img\/general\/cap\/","sizes":[40,50],"name":"\/delivery_provider_grubhub_20180129.png"}}},"referralId":"v-1543377473","hasPerk":false},{"id":"4b159828f964a520dab023e3","name":"Jenny's Pizza & Subs","location":{"address":"320 Medford St","crossStreet":"Allston St","lat":42.38128860361985,"lng":-71.06301927979395,"labeledLatLngs":[{"label":"display","lat":42.38128860361985,"lng":-71.06301927979395}],"postalCode":"02129","cc":"US","city":"Charlestown","state":"MA","country":"United States","formattedAddress":["320 Medford St (Allston St)","Charlestown, MA 02129","United States"]},"categories":[{"id":"4bf58dd8d48988d1ca941735","name":"Pizza Place","pluralName":"Pizza Places","shortName":"Pizza","icon":{"prefix":"https:\/\/ss3.4sqi.net\/img\/categories_v2\/food\/pizza_","suffix":".png"},"primary":true}],"referralId":"v-1543377473","hasPerk":false},{"id":"513bb5aa72da99bd5074bb57","name":"Pastoral - Artisan Pizza + Kitchen and Bar","location":{"address":"345 Congress St","crossStreet":"Fort Point","lat":42.35076030186295,"lng":-71.04902256856386,"labeledLatLngs":[{"label":"display","lat":42.35076030186295,"lng":-71.04902256856386}],"postalCode":"02210","cc":"US","neighborhood":"Fort Point","city":"Boston","state":"MA","country":"United States","formattedAddress":["345 Congress St (Fort Point)","Boston, MA 02210","United States"]},"categories":[{"id":"4bf58dd8d48988d1ca941735","name":"Pizza Place","pluralName":"Pizza Places","shortName":"Pizza","icon":{"prefix":"https:\/\/ss3.4sqi.net\/img\/categories_v2\/food\/pizza_","suffix":".png"},"primary":true}],"venuePage":{"id":"54570248"},"referralId":"v-1543377473","hasPerk":false},{"id":"4ae8bf2ef964a520ebb121e3","name":"Halftime Pizza","location":{"address":"115 Causeway St","crossStreet":"at Friend St.","lat":42.36519426394752,"lng":-71.06174741425218,"labeledLatLngs":[{"label":"display","lat":42.36519426394752,"lng":-71.06174741425218}],"postalCode":"02114","cc":"US","city":"Boston","state":"MA","country":"United States","formattedAddress":["115 Causeway St (at Friend St.)","Boston, MA 02114","United States"]},"categories":[{"id":"4bf58dd8d48988d1ca941735","name":"Pizza Place","pluralName":"Pizza Places","shortName":"Pizza","icon":{"prefix":"https:\/\/ss3.4sqi.net\/img\/categories_v2\/food\/pizza_","suffix":".png"},"primary":true}],"referralId":"v-1543377473","hasPerk":false},{"id":"4c8818d30074199cc73c1b70","name":"Crazy Dough's Pizza","location":{"address":"100 Legends Way","crossStreet":"North Station","lat":42.36631551187687,"lng":-71.06249991635093,"labeledLatLngs":[{"label":"display","lat":42.36631551187687,"lng":-71.06249991635093}],"postalCode":"02114","cc":"US","city":"Boston","state":"MA","country":"United States","formattedAddress":["100 Legends Way (North Station)","Boston, MA 02114","United States"]},"categories":[{"id":"4bf58dd8d48988d1ca941735","name":"Pizza Place","pluralName":"Pizza Places","shortName":"Pizza","icon":{"prefix":"https:\/\/ss3.4sqi.net\/img\/categories_v2\/food\/pizza_","suffix":".png"},"primary":true}],"referralId":"v-1543377473","hasPerk":false},{"id":"4b1f232df964a520502424e3","name":"Supreme Pizza and Subs","location":{"address":"177 Massachusetts Ave","lat":42.345907488420636,"lng":-71.0870400724503,"labeledLatLngs":[{"label":"display","lat":42.345907488420636,"lng":-71.0870400724503}],"postalCode":"02115","cc":"US","city":"Boston","state":"MA","country":"United States","formattedAddress":["177 Massachusetts Ave","Boston, MA 02115","United States"]},"categories":[{"id":"4bf58dd8d48988d1ca941735","name":"Pizza Place","pluralName":"Pizza Places","shortName":"Pizza","icon":{"prefix":"https:\/\/ss3.4sqi.net\/img\/categories_v2\/food\/pizza_","suffix":".png"},"primary":true}],"venuePage":{"id":"91029931"},"referralId":"v-1543377473","hasPerk":false},{"id":"4accca58f964a52087c920e3","name":"Ernesto's Pizza","location":{"address":"69 Salem St","crossStreet":"btwn Morton & Stillman","lat":42.36337010778569,"lng":-71.05599795301806,"labeledLatLngs":[{"label":"display","lat":42.36337010778569,"lng":-71.05599795301806}],"postalCode":"02113","cc":"US","city":"Boston","state":"MA","country":"United States","formattedAddress":["69 Salem St (btwn Morton & Stillman)","Boston, MA 02113","United States"]},"categories":[{"id":"4bf58dd8d48988d1ca941735","name":"Pizza Place","pluralName":"Pizza Places","shortName":"Pizza","icon":{"prefix":"https:\/\/ss3.4sqi.net\/img\/categories_v2\/food\/pizza_","suffix":".png"},"primary":true}],"delivery":{"id":"299737","url":"https:\/\/www.grubhub.com\/restaurant\/ernestos-69-salem-st-boston\/299737?affiliate=1131&utm_source=foursquare-affiliate-network&utm_medium=affiliate&utm_campaign=1131&utm_content=299737","provider":{"name":"grubhub","icon":{"prefix":"https:\/\/fastly.4sqi.net\/img\/general\/cap\/","sizes":[40,50],"name":"\/delivery_provider_grubhub_20180129.png"}}},"referralId":"v-1543377473","hasPerk":false},{"id":"4adc0241f964a5204d2b21e3","name":"Cappy's Pizza","location":{"address":"82 Westland Ave","crossStreet":"at Hemenway St.","lat":42.34391789410653,"lng":-71.08970261408031,"labeledLatLngs":[{"label":"display","lat":42.34391789410653,"lng":-71.08970261408031}],"postalCode":"02115","cc":"US","city":"Boston","state":"MA","country":"United States","formattedAddress":["82 Westland Ave (at Hemenway St.)","Boston, MA 02115","United States"]},"categories":[{"id":"4bf58dd8d48988d1ca941735","name":"Pizza Place","pluralName":"Pizza Places","shortName":"Pizza","icon":{"prefix":"https:\/\/ss3.4sqi.net\/img\/categories_v2\/food\/pizza_","suffix":".png"},"primary":true}],"delivery":{"id":"66929","url":"https:\/\/www.grubhub.com\/restaurant\/cappys-pizza--sub-82-westland-ave-boston\/66929?affiliate=1131&utm_source=foursquare-affiliate-network&utm_medium=affiliate&utm_campaign=1131&utm_content=66929","provider":{"name":"grubhub","icon":{"prefix":"https:\/\/fastly.4sqi.net\/img\/general\/cap\/","sizes":[40,50],"name":"\/delivery_provider_grubhub_20180129.png"}}},"referralId":"v-1543377473","hasPerk":false},{"id":"59fdf6814186861c719a09a4","name":"Oath Pizza - Fenway","location":{"address":"1348 Boylston St","lat":42.34411559675953,"lng":-71.09962336285106,"labeledLatLngs":[{"label":"display","lat":42.34411559675953,"lng":-71.09962336285106}],"postalCode":"02215","cc":"US","city":"Boston","state":"MA","country":"United States","formattedAddress":["1348 Boylston St","Boston, MA 02215","United States"]},"categories":[{"id":"4bf58dd8d48988d1ca941735","name":"Pizza Place","pluralName":"Pizza Places","shortName":"Pizza","icon":{"prefix":"https:\/\/ss3.4sqi.net\/img\/categories_v2\/food\/pizza_","suffix":".png"},"primary":true}],"delivery":{"id":"897519","url":"https:\/\/www.grubhub.com\/restaurant\/oath-pizza-1348-boylston-st-boston\/897519?affiliate=1131&utm_source=foursquare-affiliate-network&utm_medium=affiliate&utm_campaign=1131&utm_content=897519","provider":{"name":"grubhub","icon":{"prefix":"https:\/\/fastly.4sqi.net\/img\/general\/cap\/","sizes":[40,50],"name":"\/delivery_provider_grubhub_20180129.png"}}},"referralId":"v-1543377473","hasPerk":false},{"id":"4f74e0abe4b0e7c6440a28cd","name":"OTTO Pizza","location":{"address":"289 Harvard St","crossStreet":"at Green St.","lat":42.342843679747396,"lng":-71.12217450119776,"labeledLatLngs":[{"label":"display","lat":42.342843679747396,"lng":-71.12217450119776}],"postalCode":"02446","cc":"US","city":"Brookline","state":"MA","country":"United States","formattedAddress":["289 Harvard St (at Green St.)","Brookline, MA 02446","United States"]},"categories":[{"id":"4bf58dd8d48988d1ca941735","name":"Pizza Place","pluralName":"Pizza Places","shortName":"Pizza","icon":{"prefix":"https:\/\/ss3.4sqi.net\/img\/categories_v2\/food\/pizza_","suffix":".png"},"primary":true}],"referralId":"v-1543377473","hasPerk":false}],"geocode":{"what":"","where":"boston","feature":{"cc":"US","name":"Boston","displayName":"Boston, MA, United States","matchedName":"Boston, MA, United States","highlightedName":"<b>Boston<\/b>, MA, United States","woeType":7,"slug":"boston-massachusetts","id":"geonameid:4930956","longId":"72057594042858892","geometry":{"center":{"lat":42.35843,"lng":-71.05977},"bounds":{"ne":{"lat":42.400819999999996,"lng":-70.748802},"sw":{"lat":42.22788,"lng":-71.191155}}}},"parents":[]}}}