{"meta":{"code":200,"requestId":"5bfd7a999fb6b752fdce0893"},"response":{"similarVenues":{"count":5,"items":[{"id":"4d408aee1bd2a1433230f47c","name":"Papa John's Pizza","location":{"address":"1151 W Taylor St","crossStreet":"at S Racine Ave","lat":41.869296412880814,"lng":-87.65658048094474,"labeledLatLngs":[{"label":"display","lat":41.869296412880814,"lng":-87.65658048094474}],"postalCode":"60607","cc":"US","city":"Chicago","state":"IL","country":"United States","formattedAddress":["1151 W Taylor St (at S Racine Ave)","Chicago, IL 60607","United States"]},"categories":[{"id":"4bf58dd8d48988d1ca941735","name":"Pizza Place","pluralName":"Pizza Places","shortName":"Pizza","icon":{"prefix":"https:\/\/ss3.4sqi.net\/img\/categories_v2\/food\/pizza_","suffix":".png"},"primary":true}],"delivery":{"id":"205983","url":"https:\/\/www.grubhub.com\/restaurant\/papa-johns-pizza-1151-w-taylor-st-chicago\/205983?affiliate=1131&utm_source=foursquare-affiliate-network&utm_medium=affiliate&utm_campaign=1131&utm_content=205983","provider":{"name":"grubhub","icon":{"prefix":"https:\/\/fastly.4sqi.net\/img\/general\/cap\/","sizes":[40,50],"name":"\/delivery_provider_grubhub_20180129.png"}}}},{"id":"4c18f6c0d4d9c928dc31f029","name":"Bacci Pizzeria","location":{"address":"2301 W Taylor St","crossStreet":"Oakley Blvd","lat":41.86898777132048,"lng":-87.68396391373813,"labeledLatLngs":[{"label":"display","lat":41.86898777132048,"lng":-87.68396391373813}],"postalCode":"60612","cc":"US","city":"Chicago","state":"IL","country":"United States","formattedAddress":["2301 W Taylor St (Oakley Blvd)","Chicago, IL 60612","United States"]},"categories":[{"id":"4bf58dd8d48988d1ca941735","name":"Pizza Place","pluralName":"Pizza Places","shortName":"Pizza","icon":{"prefix":"https:\/\/ss3.4sqi.net\/img\/categories_v2\/food\/pizza_","suffix":".png"},"primary":true}]},{"id":"4b0b3045f964a520552e23e3","name":"Michael's Original Pizzeria & Tavern","location":{"address":"4091 N Broadway St","crossStreet":"at W Belle Plaine Ave","lat":41.956879423452875,"lng":-87.65186522091899,"labeledLatLngs":[{"label":"display","lat":41.956879423452875,"lng":-87.65186522091899}],"postalCode":"60613","cc":"US","city":"Chicago","state":"IL","country":"United States","formattedAddress":["4091 N Broadway St (at W Belle Plaine Ave)","Chicago, IL 60613","United States"]},"categories":[{"id":"4bf58dd8d48988d1ca941735","name":"Pizza Place","pluralName":"Pizza Places","shortName":"Pizza","icon":{"prefix":"https:\/\/ss3.4sqi.net\/img\/categories_v2\/food\/pizza_","suffix":".png"},"primary":true}]},{"id":"53eee3ee498e649a7bea8aff","name":"Big G's Pizza","location":{"address":"1132 W Taylor St","lat":41.86952061895878,"lng":-87.65565666150653,"labeledLatLngs":[{"label":"display","lat":41.86952061895878,"lng":-87.65565666150653}],"postalCode":"60607","cc":"US","city":"Chicago","state":"IL","country":"United States","formattedAddress":["1132 W Taylor St","Chicago, IL 60607","United States"]},"categories":[{"id":"4bf58dd8d48988d1ca941735","name":"Pizza Place","pluralName":"Pizza Places","shortName":"Pizza","icon":{"prefix":"https:\/\/ss3.4sqi.net\/img\/categories_v2\/food\/pizza_","suffix":".png"},"primary":true}]},{"id":"4b26a3f7f964a520d57e24e3","name":"Beggars Pizza","location":{"address":"310 S Clinton St","crossStreet":"at Jackson","lat":41.87785126211279,"lng":-87.64048131775529,"labeledLatLngs":[{"label":"display","lat":41.87785126211279,"lng":-87.64048131775529}],"postalCode":"60661","cc":"US","city":"Chicago","state":"IL","country":"United States","formattedAddress":["310 S Clinton St (at Jackson)","Chicago, IL 60661","United States"]},"categories":[{"id":"4bf58dd8d48988d1ca941735","name":"Pizza Place","pluralName":"Pizza Places","shortName":"Pizza","icon":{"prefix":"https:\/\/ss3.4sqi.net\/img\/categories_v2\/food\/pizza_","suffix":".png"},"primary":true}],"delivery":{"id":"258643","url":"https:\/\/www.grubhub.com\/restaurant\/beggars-pizza-310-s-clinton-st-chicago\/258643?affiliate=1131&utm_source=foursquare-affiliate-network&utm_medium=affiliate&utm_campaign=1131&utm_content=258643","provider":{"name":"grubhub","icon":{"prefix":"https:\/\/fastly.4sqi.net\/img\/general\/cap\/","sizes":[40,50],"name":"\/delivery_provider_grubhub_20180129.png"}}}}]}}}